[
  {
    "id": "241332460",
    "subtitle": "Abrantes",
    "address": [
      "Pq Do Alto De Sto Antonio S/N",
      "2200-364 Abrantes"
    ],
    "position": {
      "lat": 39.4631,
      "lng": -8.20387
    },
    "district": "santarem"
  },
  {
    "id": "210546000",
    "subtitle": "Alcabideche",
    "address": [
      "R Cesaltina Fialho Gouveia 35",
      "2645-038 Alcabideche"
    ],
    "position": {
      "lat": 38.7333,
      "lng": -9.40984
    },
    "district": "lisboa"
  },
  {
    "gid": "ChIJBzisJ_iRGA0RBeOlym9zG3Q",
    "id": "249247888",
    "subtitle": "Alcanena",
    "address": [
      "R. João da Silva Nazário 253",
      "2380-092 Alcanena"
    ],
    "district": "santarém",
    "position": {
      "lat": 39.4569168,
      "lng": -8.6689586
    }
  },
  {
    "id": "210513888",
    "subtitle": "Alcochete",
    "address": [
      "R Carlos Manuel Rodrigues Francisco 285",
      "2890-042 Alcochete"
    ],
    "position": {
      "lat": 38.75376,
      "lng": -8.95899
    },
    "district": "setubal"
  },
  {
    "id": "212747022",
    "subtitle": "Almada",
    "address": [
      "R D Sancho I 1",
      "2800-712 Almada"
    ],
    "position": {
      "lat": 38.6819,
      "lng": -9.15229
    },
    "district": "setubal"
  },
  {
    "id": "243248174",
    "subtitle": "Almeirim",
    "address": [
      "Rua De Alpiarça 23",
      "2080-091 Almeirim"
    ],
    "position": {
      "lat": 39.21208,
      "lng": -8.62538
    },
    "district": "santarem"
  },
  {
    "id": "219938840",
    "subtitle": "Alverca Do Ribatejo",
    "address": [
      "Ubr Varzea Do Brejo Lt N Loja Lj R/C",
      "2615 Alverca Do Ribatejo"
    ],
    "position": {
      "lat": 38.90421,
      "lng": -9.03923
    },
    "district": "lisboa"
  },
  {
    "id": "228328034",
    "subtitle": "Amial",
    "address": [
      "Rua Do Amial 283",
      "4200-060 Porto"
    ],
    "position": {
      "lat": 41.1754,
      "lng": -8.61385
    },
    "district": "porto"
  },
  {
    "id": "225105843",
    "subtitle": "Antas",
    "address": [
      "Rua Do Amparo 217",
      "4350-034 Porto"
    ],
    "position": {
      "lat": 41.1562,
      "lng": -8.59444
    },
    "district": "porto"
  },
  {
    "id": "210437874",
    "subtitle": "Areeiro",
    "address": [
      "Pr Francisco Sa Carneiro 4-A",
      "1000-159 Lisboa"
    ],
    "position": {
      "lat": 38.74204,
      "lng": -9.13393
    },
    "district": "lisboa"
  },
  {
    "id": "212274097",
    "subtitle": "Arrentela",
    "address": [
      "Av. Carlos De Oliveira 6",
      "2840-210 Arrentela"
    ],
    "position": {
      "lat": 38.62227,
      "lng": -9.09852
    },
    "district": "setubal"
  },
  {
    "id": "263247148",
    "subtitle": "Arruda Dos Vinhos",
    "address": [
      "Arruda dos Vinhos Intermarche",
      "2630-358 Arruda dos Vinhos"
    ],
    "position": {
      "lat": 38.99809,
      "lng": -9.08473
    },
    "district": "lisboa"
  },
  {
    "id": "234381800",
    "subtitle": "Aveiro",
    "address": [
      "R Jose Rabumba 7",
      "3810-125 Aveiro"
    ],
    "position": {
      "lat": 40.64088,
      "lng": -8.65544
    },
    "district": "aveiro"
  },
  {
    "id": "210543860",
    "subtitle": "Azeitão",
    "address": [
      "Rua Luisa Tody 128",
      "2925-568 Bejos De Azaetão"
    ],
    "position": {
      "lat": 38.54509,
      "lng": -9.0307
    },
    "district": "setubal"
  },
  {
    "gid": "ChIJERLIFR1jJA0RTb-jdM5wJHw",
    "id": "229766344",
    "subtitle": "Baguim - Valongo",
    "address": [
      "R. Dom João de Castro nº 796",
      "4510-546 Baguim do Monte"
    ],
    "district": "porto",
    "position": {
      "lat": 41.1841572,
      "lng": -8.5265429
    }
  },
  {
    "gid": "ChIJnwYl0MJTJA0RrE7QY7x1cdk",
    "id": "253834439",
    "subtitle": "Barcelos",
    "address": [
      "Av. da Liberdade 64",
      "4750-312 Barcelos"
    ],
    "district": "braga",
    "position": {
      "lat": 41.5331122,
      "lng": -8.6194101
    }
  },
  {
    "gid": "ChIJX3Zroi7lPA0RUG9DgITnD5E",
    "id": "244245933",
    "subtitle": "Batalha",
    "address": [
      "R. Batalha Reis 1",
      "6300-668 Guarda"
    ],
    "district": "distrito-da guarda",
    "position": {
      "lat": 40.5341932,
      "lng": -7.2711196
    }
  },
  {
    "id": "213619130",
    "subtitle": "Belém",
    "address": [
      "Rua Da Junqueira 470",
      "1300-341 Lisboa"
    ],
    "position": {
      "lat": 38.69749,
      "lng": -9.19834
    },
    "district": "lisboa"
  },
  {
    "id": "263517300",
    "subtitle": "Benavente",
    "address": [
      "En 118 Intermarche Benavente",
      "2130-104 Benavente"
    ],
    "position": {
      "lat": 38.96081,
      "lng": -8.818845
    },
    "district": "santarem"
  },
  {
    "id": "228304500",
    "subtitle": "Boavista",
    "address": [
      "R O 1. Janeiro 132-C",
      "4100-366 Porto"
    ],
    "position": {
      "lat": 41.16183,
      "lng": -8.64363
    },
    "district": "porto"
  },
  {
    "id": "219947260",
    "subtitle": "Bobadela",
    "address": [
      "Pcta Jose Regio 7",
      "2695-050 Bobadela"
    ],
    "position": {
      "lat": 38.80881,
      "lng": -9.0996
    },
    "district": "lisboa"
  },
  {
    "id": "253213980",
    "subtitle": "Braga Shopping",
    "address": [
      "R St Andre, Braga Shopping",
      "4710-308 Braga"
    ],
    "position": {
      "lat": 41.55193,
      "lng": -8.42195
    },
    "district": "braga"
  },
  {
    "id": "262823212",
    "subtitle": "Caldas Da Rainha",
    "address": [
      "R Belchior Matos 11, C Com Vivaci",
      "2500 Caldas Da Rainha"
    ],
    "position": {
      "lat": 39.40097,
      "lng": -9.13747
    },
    "district": "leiria"
  },
  {
    "id": "263854364",
    "subtitle": "Campera Carregado",
    "address": [
      "Outlet Campera - 1º Lojas 1,2,3",
      "2580 Carregado"
    ],
    "position": {
      "lat": 39.02824,
      "lng": -8.96688
    },
    "district": "lisboa"
  },
  {
    "id": "227652444",
    "subtitle": "Canedo",
    "address": [
      "R Principal Mosteiro Cc Intermarche",
      "4525-000 Canedo"
    ],
    "position": {
      "lat": 41.00567,
      "lng": -8.46585
    },
    "district": "aveiro"
  },
  {
    "id": "231420401",
    "subtitle": "Cantanhede",
    "address": [
      "Av Cmd X G Gama U Qt S Mateus, Bl3E",
      "3060-209 Cantanhede"
    ],
    "position": {
      "lat": 40.34965,
      "lng": -8.59196
    },
    "district": "coimbra"
  },
  {
    "id": "263710300",
    "subtitle": "Carregado",
    "address": [
      "Qt Colonia Ed Intermache, Lt 2",
      "2580-491 Carregado"
    ],
    "position": {
      "lat": 39.02855,
      "lng": -8.98089
    },
    "district": "lisboa"
  },
  {
    "gid": "ChIJNduEtGLoGA0RnTg4yeo_w-g",
    "id": "243249049",
    "subtitle": "Cartaxo",
    "address": [
      "Rua Batalhoz 98",
      "2070-071 Cartaxo"
    ],
    "district": "santarém",
    "position": {
      "lat": 39.16494,
      "lng": -8.7926236
    }
  },
  {
    "gid": "ChIJpezYJYl7JA0RopPU2lPSE68",
    "id": "227845063",
    "subtitle": "Carvalhos",
    "address": [
      "Av. Dr. Moreira Sousa 529B",
      "4415-383 Pedroso"
    ],
    "district": "porto",
    "position": {
      "lat": 41.0689636,
      "lng": -8.5768987
    }
  },
  {
    "id": "272321999",
    "subtitle": "Castelo Branco",
    "address": [
      "Rua Pedro Da Fonseca 10",
      "6000-257 Castelo Branco"
    ],
    "position": {
      "lat": 39.81883,
      "lng": -7.49348
    },
    "district": "castelo-branco"
  },
  {
    "id": "239401251",
    "subtitle": "Coimbra - Solum",
    "address": [
      "R Brasil 492",
      "3030-775 Coimbra"
    ],
    "position": {
      "lat": 40.20014,
      "lng": -8.40456
    },
    "district": "coimbra"
  },
  {
    "id": "239249280",
    "subtitle": "Condeixa",
    "address": [
      "Lugar Barreira Intermarche Condeixa",
      "3150-110 Condeixa-A-Nova"
    ],
    "position": {
      "lat": 40.12257,
      "lng": -8.50325
    },
    "district": "coimbra"
  },
  {
    "id": "212549998",
    "subtitle": "Corroios",
    "address": [
      "Av 25 De Abril 68A E 68B",
      "2855-099 Corroios"
    ],
    "position": {
      "lat": 38.64141,
      "lng": -9.15107
    },
    "district": "setubal"
  },
  {
    "id": "275314999",
    "subtitle": "Covilhã",
    "address": [
      "Parque Goldra 9004",
      "6200-060 Covilha"
    ],
    "position": {
      "lat": 40.28545,
      "lng": -7.50808
    },
    "district": "castelo-branco"
  },
  {
    "id": "268623033",
    "subtitle": "Elvas",
    "address": [
      "Sitio Do Morgadinho S/N",
      "7350-207 Elvas"
    ],
    "position": {
      "lat": 38.87465,
      "lng": -7.18411
    },
    "district": "portalegre"
  },
  {
    "id": "261865870",
    "subtitle": "Ericeira",
    "address": [
      "En 247 Km 49,4",
      "2655-319 Ericeira"
    ],
    "position": {
      "lat": 38.97742,
      "lng": -9.41807
    },
    "district": "lisboa"
  },
  {
    "id": "227320163",
    "subtitle": "Espinho",
    "address": [
      "Rua 16 757",
      "4500-241 Espinho"
    ],
    "position": {
      "lat": 41.00685,
      "lng": -8.64141
    },
    "district": "aveiro"
  },
  {
    "id": "266785201",
    "subtitle": "Évora",
    "address": [
      "Cc S Domingos 12 A 19A",
      "7000-510 Evora"
    ],
    "position": {
      "lat": 38.57303,
      "lng": -7.91337
    },
    "district": "evora"
  },
  {
    "id": "210521650",
    "subtitle": "Fernão Ferro",
    "address": [
      "Av 25 Abril Lt 505",
      "2865-039 Fernao Ferro"
    ],
    "position": {
      "lat": 38.58435,
      "lng": -9.09549
    },
    "district": "setubal"
  },
  {
    "gid": "ChIJZdRYZ5Y3Ig0R3CeRpjkLPwc",
    "id": "233423505",
    "subtitle": "Figueira Da Foz",
    "address": [
      "R. Dr. Calado 82",
      "3080-153 Figueira da Foz"
    ],
    "district": "coimbra",
    "position": {
      "lat": 40.1505007,
      "lng": -8.8654462
    }
  },
  {
    "gid": "ChIJq0mjmEw2Iw0R3XxeQ2n-LJg",
    "id": "232094363",
    "subtitle": "Forum Viseu ( local)",
    "address": [
      "Fórum Viseu, Rua Dom José da Cruz Moreira Pinto, Piso 2, loja nº 2.19",
      "3514-078 Viseu"
    ],
    "district": "viseu",
    "position": {
      "lat": 40.6618393,
      "lng": -7.9144639
    }
  },
  {
    "id": "291143085",
    "subtitle": "Funchal",
    "address": [
      "Alameda Danilo Gouveia Bl 2",
      "9000-765 Funchal"
    ],
    "position": {
      "lat": 32.64869,
      "lng": -16.93215
    },
    "district": "madeira"
  },
  {
    "gid": "ChIJ9fpQZpk_PQ0RlOuULqvcboE",
    "id": "275247536",
    "subtitle": "Fundão",
    "address": [
      "R. Jornal do Fundão 25",
      "6230-338 Fundão"
    ],
    "district": "castelo-branco",
    "position": {
      "lat": 40.1382311,
      "lng": -7.4994745
    }
  },
  {
    "id": "234245360",
    "subtitle": "Gafanha Da Nazaré",
    "address": [
      "Av Jose Estevao 451",
      "3830-556 Ilhavo"
    ],
    "position": {
      "lat": 40.6371974,
      "lng": -8.7118423
    },
    "district": "aveiro"
  },
  {
    "id": "227721928",
    "subtitle": "Gaia Canidelo",
    "address": [
      "Av Beira-Mar 1827",
      "4400-382 Vila Nova De Gaia"
    ],
    "position": {
      "lat": 41.12162,
      "lng": -8.66497
    },
    "district": "porto"
  },
  {
    "id": "224649459",
    "subtitle": "Gondomar",
    "address": [
      "R Dr Severiano 274",
      "4510-554 Fanzeres"
    ],
    "position": {
      "lat": 41.15971,
      "lng": -8.52851
    },
    "district": "porto"
  },
  {
    "gid": "ChIJvQZBtyzTGw0RgvcGtHv9Il0",
    "id": "269249760",
    "subtitle": "Grândola",
    "address": [
      "R. São João de Deus 21",
      "7570-270 Grândola"
    ],
    "district": "setúbal",
    "position": {
      "lat": 38.1753965,
      "lng": -8.5639457
    }
  },
  {
    "id": "271221399",
    "subtitle": "Guarda",
    "address": [
      "R Batalha Reis 1",
      "6300-668 Guarda"
    ],
    "position": {
      "lat": 40.53405,
      "lng": -7.27127
    },
    "district": "guarda"
  },
  {
    "id": "253146936",
    "subtitle": "Guimarães",
    "address": [
      "R Conego Manuel Faria Lj 7",
      "4800-321 Guimaraes"
    ],
    "position": {
      "lat": 41.44987,
      "lng": -8.29412
    },
    "district": "braga"
  },
  {
    "id": "210544300",
    "subtitle": "Infantado",
    "address": [
      "Rua Pedro Alvares Cabral 6-A",
      "2670-391 Infantado"
    ],
    "position": {
      "lat": 38.8410946,
      "lng": -9.1614909
    },
    "district": "lisboa"
  },
  {
    "id": "244822892",
    "subtitle": "Leiria",
    "address": [
      "Av N S Fatima Lt 15",
      "2410-140 Leiria"
    ],
    "position": {
      "lat": 39.73769,
      "lng": -8.80091
    },
    "district": "leiria"
  },
  {
    "id": "261243404",
    "subtitle": "Lourinhã",
    "address": [
      "Pq Varzea Ed V Park",
      "2530-921 Lourinha"
    ],
    "position": {
      "lat": 39.24501,
      "lng": -9.31209
    },
    "district": "lisboa"
  },
  {
    "gid": "ChIJTyXIIFpmJA0RBEiJMqsoYA4",
    "id": "229443148",
    "subtitle": "Maia",
    "address": [
      "Praça Almada Negreiros, 168, R/C Loja 4",
      "4470-133 Maia"
    ],
    "district": "porto",
    "position": {
      "lat": 41.2279351,
      "lng": -8.6218107
    }
  },
  {
    "id": "2105329005",
    "subtitle": "Malveira",
    "address": [
      "En8 Intermarche Malveira",
      "2665-297 Malveira"
    ],
    "position": {
      "lat": 38.94056,
      "lng": -9.25194
    },
    "district": "lisboa"
  },
  {
    "gid": "ChIJo17F8Q9rIg0RaUQFnmigXCM",
    "id": "236147372",
    "subtitle": "Marinha Da Guia",
    "address": [
      "Rua Serrado da Estrada 24",
      "3105-063"
    ],
    "district": "leiria",
    "position": {
      "lat": 39.968417,
      "lng": -8.7928467
    }
  },
  {
    "id": "229374137",
    "subtitle": "Matosinhos",
    "address": [
      "Av D Afonso Henriques 1136",
      "4450-017 Matosinhos"
    ],
    "position": {
      "lat": 41.17913,
      "lng": -8.68171
    },
    "district": "porto"
  },
  {
    "id": "231247317",
    "subtitle": "Mealhada",
    "address": [
      "Intermarche Lugar Das Pedrinhas S/N",
      "3050-343 Mealhada"
    ],
    "position": {
      "lat": 40.372,
      "lng": -8.45306
    },
    "district": "aveiro"
  },
  {
    "id": "265249924",
    "subtitle": "Moita",
    "address": [
      "R Gen Humberto Delgado 4",
      "2860-473 Moita"
    ],
    "position": {
      "lat": 38.65143,
      "lng": -8.99123
    },
    "district": "setubal"
  },
  {
    "id": "212326800",
    "subtitle": "Montijo",
    "address": [
      "Av Corregedor Rodrigo Dias 3",
      "2870-153 Montijo"
    ],
    "position": {
      "lat": 38.70638,
      "lng": -8.96516
    },
    "district": "setubal"
  },
  {
    "gid": "ChIJTRp7_bK_EA0RxUtM2T7rr_o",
    "id": "284249828",
    "subtitle": "Moura",
    "address": [
      "R. Manuel Mendes 2",
      "7860-193 Moura"
    ],
    "district": "beja",
    "position": {
      "lat": 38.141904,
      "lng": -7.4516705
    }
  },
  {
    "gid": "ChIJRzIkNcBVBQ0Rrrn41XUDdNE",
    "id": "289241200",
    "subtitle": "Olhão",
    "address": [
      "Urbanização Marina Village 19",
      "8700-292 Olhão"
    ],
    "district": "faro",
    "position": {
      "lat": 37.0242912,
      "lng": -7.8490203
    }
  },
  {
    "gid": "ChIJOxi5JAqDGA0Ri0PDiLPTrLQ",
    "id": "249247794",
    "subtitle": "Ourém",
    "address": [
      "R. 5 de Outubro 35 RC Dto",
      "2490-508 Ourém"
    ],
    "district": "santarém",
    "position": {
      "lat": 39.6562723,
      "lng": -8.581694
    }
  },
  {
    "id": "255246193",
    "subtitle": "Paços De Ferreira",
    "address": [
      "Avenida Dos Templários 454",
      "4590-509 Paços De Ferreira"
    ],
    "position": {
      "lat": 41.27536,
      "lng": -8.37813
    },
    "district": "porto"
  },
  {
    "id": "214586489",
    "subtitle": "Parede",
    "address": [
      "Rua Machado Dos Santos 482-D",
      "2775-236 Parede"
    ],
    "position": {
      "lat": 38.69049,
      "lng": -9.35157
    },
    "district": "lisboa"
  },
  {
    "id": "255863444",
    "subtitle": "Penafiel",
    "address": [
      "Ed Kriptonite Figuras",
      "4560-222 Marecos"
    ],
    "position": {
      "lat": 41.192116,
      "lng": -8.299191
    },
    "district": "porto"
  },
  {
    "id": "262243125",
    "subtitle": "Peniche",
    "address": [
      "Rua Alexandre Herculano 26 A 28",
      "2520-273 Peniche"
    ],
    "position": {
      "lat": 39.36001,
      "lng": -9.37847
    },
    "district": "leiria"
  },
  {
    "id": "212384343",
    "subtitle": "Pinhal Novo",
    "address": [
      "Em 533 Es Repsol",
      "2955-008 Pinhal Novo"
    ],
    "position": {
      "lat": 38.63067,
      "lng": -8.9238
    },
    "district": "setubal"
  },
  {
    "id": "265247355",
    "subtitle": "Poço Mouro",
    "address": [
      "En 10 Km42",
      "2910-298 Pontes"
    ],
    "position": {
      "lat": 38.53778,
      "lng": -8.85722
    },
    "district": "setubal"
  },
  {
    "id": "236149960",
    "subtitle": "Pombal",
    "address": [
      "R Dr Carlos Mota Pinto Lj-34",
      "3100-389 Pombal"
    ],
    "position": {
      "lat": 39.92009,
      "lng": -8.62901
    },
    "district": "leiria"
  },
  {
    "id": "245328449",
    "subtitle": "Portalegre",
    "address": [
      "R 1 Maio Lj 75",
      "7300-205 Portalegre"
    ],
    "position": {
      "lat": 39.29364,
      "lng": -7.43253
    },
    "district": "portalegre"
  },
  {
    "id": "282411623",
    "subtitle": "Praia Da Rocha",
    "address": [
      "Av Comunidades, V3 Ed Jardins Rocha",
      "8500-607 Portimao"
    ],
    "position": {
      "lat": 37.11916,
      "lng": -8.54452
    },
    "district": "faro"
  },
  {
    "id": "289245821",
    "subtitle": "Quarteira",
    "address": [
      "Av Ceuta Ed Grade",
      "8125-116 Quarteira"
    ],
    "position": {
      "lat": 37.06975,
      "lng": -8.09889
    },
    "district": "faro"
  },
  {
    "id": "210529057",
    "subtitle": "Quinta Do Anjo",
    "address": [
      "Rua João Vaz Corte Real Lote 163",
      "2950-559 Palmela"
    ],
    "position": {
      "lat": 38.5658838,
      "lng": -8.9528774
    },
    "district": "setubal"
  },
  {
    "gid": "ChIJk-gJschIGQ0RKST4hGt35b8",
    "id": "212105326",
    "subtitle": "Quinta Do Conde",
    "address": [
      "R. Piteira Santos Nº11",
      "2975-330 Q.ta do Conde"
    ],
    "district": "setúbal",
    "position": {
      "lat": 38.5640468,
      "lng": -9.0400837
    }
  },
  {
    "id": "243247907",
    "subtitle": "Rio Maior",
    "address": [
      "Rua Poeta Ruy Belo 21",
      "2040-323 Rio Maior"
    ],
    "position": {
      "lat": 39.3386644,
      "lng": -8.9339224
    },
    "district": "santarem"
  },
  {
    "id": "256887083",
    "subtitle": "S. João Da Madeira",
    "address": [
      "Av Renato Araujo 1876",
      "3700-241 Sao Joao Da Madeira"
    ],
    "position": {
      "lat": 40.89135,
      "lng": -8.49307
    },
    "district": "aveiro"
  },
  {
    "id": "243321000",
    "subtitle": "Santarém",
    "address": [
      "Av D Afonso Henriques 39",
      "2000-179 Santarem"
    ],
    "position": {
      "lat": 39.23067,
      "lng": -8.687
    },
    "district": "santarem"
  },
  {
    "gid": "ChIJ27Yc6Cx7JA0Rl9RamC8ouGo",
    "id": "223743805",
    "subtitle": "Santo Ovídio",
    "address": [
      "R. de Soares dos Reis 528",
      "4400-315 Porto"
    ],
    "district": "porto",
    "position": {
      "lat": 41.118038,
      "lng": -8.6084916
    }
  },
  {
    "id": "252143921",
    "subtitle": "Santo Tirso",
    "address": [
      "Lr Cor Baptista Coelho 47",
      "4780-370 Santo Triso"
    ],
    "position": {
      "lat": 41.34278,
      "lng": -8.47435
    },
    "district": "porto"
  },
  {
    "id": "212699146",
    "subtitle": "São Marcos",
    "address": [
      "Alameda S. Marcos Cc S. Marcos",
      "2735-010 Agualva-Cacem"
    ],
    "position": {
      "lat": 38.74865,
      "lng": -9.29925
    },
    "district": "lisboa"
  },
  {
    "gid": "ChIJifbWliRNGQ0R0bTJ66RCV28",
    "id": "265247712",
    "subtitle": "Sesimbra",
    "address": [
      "Rua da Almoínha 6",
      "2970-037 Santana"
    ],
    "district": "setúbal",
    "position": {
      "lat": 38.462204,
      "lng": -9.1046307
    }
  },
  {
    "gid": "ChIJKWbtlruVGw0R7gh4250xGK0",
    "id": "269249750",
    "subtitle": "Sines",
    "address": [
      "Alameda da Paz n43",
      "7520-110 Sines"
    ],
    "district": "setúbal",
    "position": {
      "lat": 37.9585373,
      "lng": -8.8668416
    }
  },
  {
    "id": "256248752",
    "subtitle": "St. Maria Da Feira",
    "address": [
      "Av Dr Domingos Caetano Sousa 546",
      "4520-176 Sta Maria Da Feira"
    ],
    "position": {
      "lat": 40.92576,
      "lng": -8.55228
    },
    "district": "aveiro"
  },
  {
    "id": "239246444",
    "subtitle": "Taveiro",
    "address": [
      "Mondego Retail Park S/N",
      "3045-504 Taveiro"
    ],
    "position": {
      "lat": 40.19178,
      "lng": -8.51022
    },
    "district": "coimbra"
  },
  {
    "id": "249812214",
    "subtitle": "Tomar",
    "address": [
      "R Marques De Pombal 34 A 38",
      "2300-510 Tomar"
    ],
    "position": {
      "lat": 39.60469,
      "lng": -8.4101
    },
    "district": "santarem"
  },
  {
    "gid": "ChIJT9NRAn89Iw0R2srodg4lwCw",
    "id": "232245613",
    "subtitle": "Tondela",
    "address": [
      "R. Lannemezan 46 R/C Esquerda",
      "3460-606 Tondela"
    ],
    "district": "viseu",
    "position": {
      "lat": 40.5182456,
      "lng": -8.081685
    }
  },
  {
    "id": "261338900",
    "subtitle": "Torres Vedras",
    "address": [
      "Av Gen Humberto Delgado 12 E 12-A",
      "2560-272 Torres Vedras"
    ],
    "position": {
      "lat": 39.08952,
      "lng": -9.25337
    },
    "district": "lisboa"
  },
  {
    "gid": "ChIJd1fiy1VYJA0Rqks2AgFKz3c",
    "id": "252371047",
    "subtitle": "V. N. Famalicão",
    "address": [
      "Av. 25 de Abril 188",
      "4760-281 Vila Nova de Famalicão"
    ],
    "district": "braga",
    "position": {
      "lat": 41.4080209,
      "lng": -8.5216593
    }
  },
  {
    "id": "265247270",
    "subtitle": "Vendas Novas",
    "address": [
      "R Sarmento Vieira 61 A 71",
      "7080-075 Vendas Novas"
    ],
    "position": {
      "lat": 38.67436,
      "lng": -8.46416
    },
    "district": "evora"
  },
  {
    "id": "210513355",
    "subtitle": "Vialonga",
    "address": [
      "Est Dos Canicos 253 Intermarche",
      "2625-253 V F Xira"
    ],
    "position": {
      "lat": 38.87653,
      "lng": -9.06993
    },
    "district": "lisboa"
  },
  {
    "id": "258247093",
    "subtitle": "Viana Do Castelo",
    "address": [
      "R Eng Joao Branco 73",
      "4900-299 Viana Do Castelo"
    ],
    "position": {
      "lat": 41.70092,
      "lng": -8.82778
    },
    "district": "viana-do-castelo"
  },
  {
    "gid": "ChIJHd5y078nGQ0R3sAdn0y-fBs",
    "id": "263288589",
    "subtitle": "Vila Franca De Xira",
    "address": [
      "R. 1º de Dezembro 59",
      "2600-135 Vila Franca de Xira"
    ],
    "district": "lisboa",
    "position": {
      "lat": 38.9529561,
      "lng": -8.9882112
    }
  },
  {
    "gid": "ChIJOfopFBxLOw0R-PiQ8srumig",
    "id": "259248060",
    "subtitle": "Vila Real",
    "address": [
      "R. da Tenaria 6",
      "5000-519 Vila Real"
    ],
    "district": "vila-real",
    "position": {
      "lat": 41.2983297,
      "lng": -7.7508703
    }
  },
  {
    "id": "232460510",
    "subtitle": "Viseu",
    "address": [
      "Palacio Do Gelo 3",
      "3500-606 Viseu"
    ],
    "position": {
      "lat": 40.64425,
      "lng": -7.9105
    },
    "district": "viseu"
  }
]
